---
'1230026':
  :name: |-
    医療法人青雲会
    恩田メディカルクリニック
  :latitude: 35.8096214
  :longitude: 139.9186352
'1230034':
  :name: 国保松戸市立病院
  :latitude: 35.7962369
  :longitude: 139.9189857
'1230077':
  :name: キッコーマン総合病院
  :latitude: 35.9532868
  :longitude: 139.870264
'1230093':
  :name: 医療法人聖峰会 岡田病院
  :latitude: 35.8635852
  :longitude: 139.9710649
'1230107':
  :name: 医療法人 深町病院
  :latitude: 35.8643046
  :longitude: 139.9740229
'1230221':
  :name: |-
    医療法人社団
    ときわ会 常磐平中央病院
  :latitude: 35.7980636
  :longitude: 139.9564581
'1230255':
  :name: 望月医院
  :latitude: 35.8981887
  :longitude: 139.9092056
'1230271':
  :name: |-
    医療法人社団桃和会　
    門倉医院
  :latitude: 35.9413802
  :longitude: 139.8598069
'1230301':
  :name: 中本医院
  :latitude: 35.9425855
  :longitude: 139.8619234
'1230310':
  :name: 板野外科歯科
  :latitude: 35.8316415
  :longitude: 139.9290781
'1230328':
  :name: |-
    医療法人社団清志会
    山本病院
  :latitude: 35.8307252
  :longitude: 139.9340138
'1230344':
  :name: |-
    医療法人社団聖仁会
    我孫子聖仁会病院
  :latitude: 35.8765189
  :longitude: 140.0516867
'1230379':
  :name: |-
    医療法人社団　
    一期一会 山口整形外科
  :latitude: 35.8574612
  :longitude: 139.9698762
'1230425':
  :name: 医療法人社団廣医会 奥隅医院
  :latitude: 35.7874324
  :longitude: 139.9165364
'1230441':
  :name: 森堂＆廣佐藤医院
  :latitude: 35.8602744
  :longitude: 139.9630629
'1230476':
  :name: |-
    医療法人社団誠馨会　
    新東京クリニック
  :latitude: 35.7855188
  :longitude: 139.9019348
'1230492':
  :name: 古田医院
  :latitude: 35.8662151
  :longitude: 139.9644849
'1230514':
  :name: 丹保医院
  :latitude: 35.9810661
  :longitude: 139.8380436
'1230549':
  :name: つくしが丘医院
  :latitude: 35.8359508
  :longitude: 139.9629857
'1230557':
  :name: 医療法人社団開智会高木クリニック
  :latitude: 35.807655
  :longitude: 139.9057753
'1230565':
  :name: 高田外科胃腸内科
  :latitude: 35.7890684
  :longitude: 139.8979294
'1230573':
  :name: 小倉外科内科
  :latitude: 35.8766436
  :longitude: 140.0442846
'1230581':
  :name: |-
    医療法人社団圭春会
    小張総合病院附属診療所
  :latitude: 35.9485652
  :longitude: 139.8650618
'1230646':
  :name: 一誠医院
  :latitude: 35.78315790000001
  :longitude: 139.9176366
'1230654':
  :name: 山崎外科内科
  :latitude: 35.9596331
  :longitude: 139.8578231
'1230662':
  :name: 古池外科胃腸科医院
  :latitude: 35.8188323
  :longitude: 139.9358447
'1230671':
  :name: |-
    医療法人社団創寿会　
    松戸外科内科眼科クリニック
  :latitude: 35.7904321
  :longitude: 139.9168307
'1230689':
  :name: アビコ外科整形外科病院
  :latitude: 35.8769258
  :longitude: 140.0108936
'1230701':
  :name: 中澤外科・胃腸科
  :latitude: 35.765138
  :longitude: 139.9000635
'1230735':
  :name: 北原整形外科
  :latitude: 35.8172501
  :longitude: 139.9510825
'1230786':
  :name: 黒沢外科胃腸科医院
  :latitude: 35.8132365
  :longitude: 139.9476886
'1230794':
  :name: |-
    医療法人社団瑞鳳会
    原瀬整形外科クリニック
  :latitude: 35.8903945
  :longitude: 139.9565121
'1230808':
  :name: 南柏整形外科
  :latitude: 35.8506287
  :longitude: 139.9537002
'1230816':
  :name: 三富医院
  :latitude: 35.8873823
  :longitude: 140.0077409
'1230824':
  :name: 医療法人社団雄元会　東洋眼科医院・柏
  :latitude: 35.8602497
  :longitude: 139.9754839
'1230832':
  :name: |-
    医療法人財団松圓会
    東葛クリニック病院
  :latitude: 35.7914653
  :longitude: 139.893563
'1230841':
  :name: |-
    医療法人社団曙会　
    流山中央病院
  :latitude: 35.8878183
  :longitude: 139.9181468
'1230867':
  :name: |-
    医療法人社団
    桜整会 阿藤整形外科
  :latitude: 35.8954947
  :longitude: 139.9092584
'1230875':
  :name: 足立外科胃腸科
  :latitude: 35.8312827
  :longitude: 139.9086826
'1230883':
  :name: |-
    医療法人社団
    ますお会 柏の葉北総病院
  :latitude: 35.893218
  :longitude: 139.9339838
'1230891':
  :name: 山岡外科胃腸科
  :latitude: 35.8975824
  :longitude: 139.9578894
'1230921':
  :name: |-
    医療法人社団　誠馨会
    新東京クリニック松飛台
  :latitude: 35.7775712
  :longitude: 139.9629275
'1230930':
  :name: 医療法人社団大野医院
  :latitude: 35.8430776
  :longitude: 140.002398
'1230948':
  :name: |-
    医療法人社団
    協友会 柏厚生総合病院
  :latitude: 35.87296389999999
  :longitude: 139.9612821
'1230981':
  :name: 五香病院
  :latitude: 35.79591449999999
  :longitude: 139.9801332
'1230999':
  :name: 上笹医院
  :latitude: 35.8338373
  :longitude: 140.0102864
'1231006':
  :name: |-
    医療法人財団明理会
    新松戸中央総合病院
  :latitude: 35.8286969
  :longitude: 139.9212594
'1231014':
  :name: 増尾外科内科
  :latitude: 35.8173339
  :longitude: 139.9712359
'1231057':
  :name: |-
    医療法人社団巧誠会
    すずき整形外科クリニック
  :latitude: 35.79135369999999
  :longitude: 139.9773227
'1231073':
  :name: 吉野整形外科
  :latitude: 35.8309432
  :longitude: 139.9669133
'1231081':
  :name: 我孫子つくし野病院
  :latitude: 35.8844272
  :longitude: 140.0052968
'1231090':
  :name: 医療法人社団清祥会　東山医院
  :latitude: 35.8588166
  :longitude: 139.974634
'1231103':
  :name: |-
    医療法人財団
    東京勤労者医療会 東葛病院
  :latitude: 35.853059
  :longitude: 139.915847
'1231111':
  :name: 医療法人社団東雲会　兒玉医院
  :latitude: 35.8160374
  :longitude: 139.9220041
'1231120':
  :name: |-
    医療法人社団愛友会
    千葉愛友会記念病院
  :latitude: 35.8366432
  :longitude: 139.9116072
'1231146':
  :name: "医療法人社団福聚会 \n東葛飾病院"
  :latitude: 36.0559826
  :longitude: 139.8023634
'1231162':
  :name: |-
    社会医療法人社団
    蛍水会 名戸ヶ谷病院
  :latitude: 35.8452105
  :longitude: 139.9824944
'1231171':
  :name: |-
    医療法人社団
    江陽会 江陽台病院
  :latitude: 35.909634
  :longitude: 139.8929704
'1231189':
  :name: |-
    医療法人社団
    博恵会 柏南病院
  :latitude: 35.8168091
  :longitude: 139.9796682
'1231201':
  :name: |-
    医療法人社団
    圭春会 小張総合病院
  :latitude: 35.9521258
  :longitude: 139.8794995
'1231227':
  :name: 横田医院
  :latitude: 35.9003355
  :longitude: 139.9118331
'1231235':
  :name: 大町北クリニック
  :latitude: 35.7756879
  :longitude: 139.9581031
'1231243':
  :name: |-
    医療法人社団　
    太公会 我孫子東邦病院
  :latitude: 35.8669556
  :longitude: 140.0272366
'1231251':
  :name: |-
    医療法人社団
    啓仁会 関宿中央医院
  :latitude: 36.0192593
  :longitude: 139.8318236
'1231278':
  :name: |-
    医療法人社団青嶺会
    松戸整形外科病院
  :latitude: 35.8164873
  :longitude: 139.9000783
'1231286':
  :name: 天王台こども・おとしよりクリニック
  :latitude: 35.8685947
  :longitude: 140.0416713
'1231294':
  :name: |-
    医療法人社団
    喜晴会 野田中央病院
  :latitude: 35.9351083
  :longitude: 139.9003877
'1231308':
  :name: |-
    医療法人社団清仁会
    足立中央クリニック
  :latitude: 35.7922327
  :longitude: 139.9376957
'1231316':
  :name: |-
    医療法人社団
    創造会 平和台病院
  :latitude: 35.8636154
  :longitude: 140.1158999
'1231324':
  :name: 眼科緑の森
  :latitude: 35.8630587
  :longitude: 139.9734457
'1231332':
  :name: |-
    学校法人慈恵大学　
    東京慈恵会医科大学附属柏病院
  :latitude: 35.8698206
  :longitude: 139.9829443
'1231341':
  :name: 疋田医院
  :latitude: 35.8631469
  :longitude: 139.9681363
'1231359':
  :name: 大須整形外科医院
  :latitude: 35.7875324
  :longitude: 139.9189279
'1231375':
  :name: |-
    医療法人社団
    順我会 高野山胃腸科内科
  :latitude: 35.8672196
  :longitude: 140.03195
'1231383':
  :name: 医療法人社団 小田川整形外科
  :latitude: 35.869427
  :longitude: 140.0100606
'1231391':
  :name: 尾崎整形外科
  :latitude: 35.887337
  :longitude: 139.9687475
'1231405':
  :name: 須藤整形外科
  :latitude: 35.9365668
  :longitude: 139.8637429
'1231421':
  :name: 医療法人社団昭和会 昭和医院
  :latitude: 35.8609821
  :longitude: 139.9770524
'1231448':
  :name: "医療法人社団慶友会 \n原整形外科眼科"
  :latitude: 35.8574196
  :longitude: 139.9752506
'1231456':
  :name: 駒木台クリニック
  :latitude: 35.8965502
  :longitude: 139.9240987
'1231481':
  :name: |-
    国立研究開発法人
    国立がん研究センター東病院
  :latitude: 35.8997784
  :longitude: 139.9408133
'1231502':
  :name: 金田整形外科医院
  :latitude: 35.87173600000001
  :longitude: 140.043654
'1231511':
  :name: 医療法人社団真療会 野田病院
  :latitude: 36.0006424
  :longitude: 139.847445
'1231529':
  :name: "医療法人社団清志会 \n大倉記念病院"
  :latitude: 35.8345825
  :longitude: 139.9247839
'1231537':
  :name: 森岡クリニック
  :latitude: 35.7940123
  :longitude: 139.9234855
'1231545':
  :name: |-
    公益財団法人
    柏市医療公社 柏市立柏病院
  :latitude: 35.8929116
  :longitude: 139.9818435
'1231553':
  :name: 医療法人社団柏水会 初石病院
  :latitude: 35.8884796
  :longitude: 139.9273375
'1231561':
  :name: ファミリークリニック成島
  :latitude: 35.889773
  :longitude: 139.979697
'1231570':
  :name: |-
    医療法人社団康路会
    若林胃腸科クリニック
  :latitude: 35.7705484
  :longitude: 139.9128987
'1231600':
  :name: |-
    医療法人社団
    真心会 岡村胃腸科外科
  :latitude: 35.7924833
  :longitude: 139.950481
'1231618':
  :name: |-
    医療法人社団天宣会
    梅郷整形外科クリニック
  :latitude: 35.93667740000001
  :longitude: 139.8935841
'1231626':
  :name: 医療法人社団柳澤会 柳澤医院
  :latitude: 35.7923874
  :longitude: 139.8979265
'1231634':
  :name: みやぶち整形外科
  :latitude: 35.86051339999999
  :longitude: 139.9685985
'1231642':
  :name: 青木クリニック
  :latitude: 36.0243279
  :longitude: 139.8251074
'1231651':
  :name: |-
    医療法人社団
    団心会 トヨガミクリニック
  :latitude: 35.8583162
  :longitude: 139.9534889
'1231669':
  :name: "松戸市立福祉医療センター \n東松戸病院"
  :latitude: 35.7570591
  :longitude: 139.9433578
'1231677':
  :name: 牧の原クリニック
  :latitude: 35.7906808
  :longitude: 139.9521531
'1231693':
  :name: |-
    社会医療法人社団
    木下会 千葉西総合病院
  :latitude: 35.8045873
  :longitude: 139.9451253
'1231723':
  :name: "医療法人財団東京勤労者医療会 \n野田南部診療所"
  :latitude: 35.9294505
  :longitude: 139.887603
'1231731':
  :name: |-
    医療法人社団良翔会
    天王台皮フ科クリニック
  :latitude: 35.8717583
  :longitude: 140.0444237
'1231766':
  :name: |-
    学校法人　日本大学　
    日本大学松戸歯学部付属病院
  :latitude: 35.8099242
  :longitude: 139.8991869
'1231774':
  :name: 医療法人社団山成会 東葛眼科
  :latitude: 35.8334856
  :longitude: 139.9318643
'1231782':
  :name: |-
    医療法人社団松仁会　
    北柏胃腸科外科
  :latitude: 35.8743895
  :longitude: 139.9874729
'1231804':
  :name: 西村クリニック
  :latitude: 35.9549311
  :longitude: 139.8728415
'1231821':
  :name: "医療法人社団実幸会 \nいらはら診療所"
  :latitude: 35.8232236
  :longitude: 139.9390165
'1231839':
  :name: |-
    医療法人社団淑幸会
    野田ライフケアセンタークリニック
  :latitude: 35.956364
  :longitude: 139.86585
'1231847':
  :name: 医療法人社団全生会 江戸川病院
  :latitude: 35.9204104
  :longitude: 139.9011412
'1231855':
  :name: 医療法人社団順仁会 町クリニック
  :latitude: 35.8727103
  :longitude: 139.9838456
'1231871':
  :name: "医療法人社団秀和会 \n秀和会クリニック"
  :latitude: 35.8889651
  :longitude: 139.9898208
'1231898':
  :name: 塚原整形外科
  :latitude: 35.8430721
  :longitude: 140.0094334
'1231901':
  :name: しばやま整形外科
  :latitude: 35.9450578
  :longitude: 139.9136722
'1231910':
  :name: 山中歯科医院
  :latitude: 35.8641655
  :longitude: 139.967243
'1231928':
  :name: |-
    医療法人社団
    博保会 中島クリニック
  :latitude: 35.8068302
  :longitude: 140.0025998
'1231936':
  :name: 小山歯科医院
  :latitude: 35.8503151
  :longitude: 139.9690264
'1231944':
  :name: 平岡クリニック
  :latitude: 35.8240743
  :longitude: 139.9146272
'1231952':
  :name: 斉井整形外科
  :latitude: 35.8269638
  :longitude: 139.9210261
'1231961':
  :name: 増尾駅皮フ科形成外科
  :latitude: 35.8295962
  :longitude: 139.9767567
'1231979':
  :name: |-
    医療法人社団　
    みゆき会 矢切クリニック
  :latitude: 35.7569393
  :longitude: 139.8989861
'1231987':
  :name: |-
    医療法人財団東京勤労者医療会
    東葛病院付属診療所
  :latitude: 35.8677246
  :longitude: 139.9024849
'1231995':
  :name: |-
    医療法人社団葛野会　
    木野崎病院
  :latitude: 35.9553622
  :longitude: 139.9074167
'1232011':
  :name: |-
    医療法人社団
    剛歯会 わかば歯科医院
  :latitude: 36.024225
  :longitude: 139.822466
'1232029':
  :name: |-
    医療法人社団
    康喜会 東葛辻仲病院
  :latitude: 35.878223
  :longitude: 140.002183
'1232045':
  :name: |-
    医療法人社団天宣会
    北柏リハビリ総合病院
  :latitude: 35.8720813
  :longitude: 139.9825717
'1232053':
  :name: そが内科クリニック
  :latitude: 35.78529899999999
  :longitude: 139.8997565
'1232061':
  :name: 佐藤眼科クリニック
  :latitude: 35.8835
  :longitude: 139.918436
'1232070':
  :name: |-
    医療法人社団葵会　
    千葉・柏ﾘﾊﾋﾞﾘﾃｰｼｮﾝ病院
  :latitude: 35.8564038
  :longitude: 140.0134327
'1232088':
  :name: |-
    医療法人社団英智会　
    せき整形外科クリニック
  :latitude: 35.7976164
  :longitude: 139.9736661
'1232100':
  :name: 逆井記念医院
  :latitude: 35.8112682
  :longitude: 139.9754218
'1232118':
  :name: |-
    医療法人社団晟幸会
    西馬橋歯科クリニック
  :latitude: 35.813296
  :longitude: 139.9132467
'1232126':
  :name: |-
    医療法人社団　
    晃栄会 上野整形外科
  :latitude: 35.775595
  :longitude: 139.9056878
'1232134':
  :name: 医療法人社団六然会　佐藤クリニック
  :latitude: 35.8754325
  :longitude: 139.945614
'1232142':
  :name: |-
    医療法人社団青嶺会
    松戸整形外科クリニック
  :latitude: 35.81171399999999
  :longitude: 139.916832
'1232151':
  :name: |-
    医療法人社団聖山会
    北柏ファミリークリニック
  :latitude: 35.8693959
  :longitude: 139.989763
'1232169':
  :name: すがもり整形外科医院
  :latitude: 35.8749955
  :longitude: 140.0079385
'1232177':
  :name: みよし皮膚科
  :latitude: 35.7978674
  :longitude: 139.9896487
'1232185':
  :name: |-
    医療法人社団
    ありのみの会 菅原整形外科
  :latitude: 35.7782619
  :longitude: 139.935916
'1232215':
  :name: いちおか眼科
  :latitude: 35.9507455
  :longitude: 139.8653756
'1232223':
  :name: 花島内科クリニック
  :latitude: 35.8691034
  :longitude: 140.0782673
'1232231':
  :name: |-
    医療法人社団
    優仁会 新柏ファミリー歯科
  :latitude: 35.840041
  :longitude: 139.967815
'1232240':
  :name: |-
    医療法人社団洗心　
    島村トータル・ケア・クリニック
  :latitude: 35.7777308
  :longitude: 139.913365
'1232258':
  :name: |-
    医療法人社団
    順邦会 飯島整形外科
  :latitude: 35.864374
  :longitude: 139.969557
'1232266':
  :name: |-
    医療法人社団
    大伸会 三国歯科医院
  :latitude: 35.7909898
  :longitude: 139.9752007
'1232274':
  :name: |-
    医療法人社団
    のぞみ会 梨香台診療所
  :latitude: 35.7609778
  :longitude: 139.9311032
'1232291':
  :name: |-
    医療法人社団弥生会　
    旭神経内科リハビリテーション病院
  :latitude: 35.8110232
  :longitude: 139.9542743
'1232304':
  :name: |-
    医療法人社団
    久進会 進藤整形外科
  :latitude: 35.7829199
  :longitude: 139.9020179
'1232321':
  :name: ヤマ・クリニック
  :latitude: 35.8645544
  :longitude: 139.9675457
'1232371':
  :name: |-
    医療法人社団
    圭春会 小張総合クリニック
  :latitude: 35.9511759
  :longitude: 139.8797551
'1232380':
  :name: こんどうクリニック
  :latitude: 35.8598668
  :longitude: 139.9734457
'1232410':
  :name: |-
    医療法人社団　慈愛会　
    のぶさわ胃腸科クリニック
  :latitude: 35.843152
  :longitude: 139.953312
'1232428':
  :name: |-
    医療法人社団
    誠馨会 新東京ハートクリニック
  :latitude: 35.785416
  :longitude: 139.9015654
'1232444':
  :name: ひろクリニック
  :latitude: 35.843758
  :longitude: 139.954689
'1232461':
  :name: 柏福眼科
  :latitude: 35.875414
  :longitude: 139.98768
'1232479':
  :name: さかの整形外科クリニック
  :latitude: 35.7585973
  :longitude: 139.8996249
'1232487':
  :name: 谷田部歯科クリニック
  :latitude: 35.8737152
  :longitude: 140.0108054
'1232495':
  :name: |-
    医療法人愛育会　
    やばしら歯科駅ビル診療所
  :latitude: 35.79169110000001
  :longitude: 139.9380791
'1232517':
  :name: |-
    ケアナーシングワイズ
    外科・内科クリニック
  :latitude: 35.8729308
  :longitude: 140.0453396
'1232525':
  :name: 早川整形外科クリニック
  :latitude: 35.7992055
  :longitude: 139.9110443
'1232541':
  :name: 稔台整形外科クリニック
  :latitude: 35.788356
  :longitude: 139.9306429
'1232550':
  :name: 大和田ファミリークリニック
  :latitude: 35.8604351
  :longitude: 139.9486921
'1232568':
  :name: 医療法人社団英会 小野医院
  :latitude: 35.830846
  :longitude: 139.9673105
'1232576':
  :name: |-
    医療法人社団　奎愛会 　
    小野クリニック
  :latitude: 35.8961001
  :longitude: 139.9013119
'1232584':
  :name: |-
    医療法人社団創明会　
    柏整形外科クリニック
  :latitude: 35.8458807
  :longitude: 139.9550149
'1232592':
  :name: |-
    医療法人社団
    なごみ会 向小金クリニック
  :latitude: 35.8378393
  :longitude: 139.9534923
'1232606':
  :name: スズキ皮フ科内科クリニック
  :latitude: 35.947621
  :longitude: 139.875751
'1232614':
  :name: 南流山整形外科
  :latitude: 35.836838
  :longitude: 139.9027784
'1232622':
  :name: |-
    医療法人社団碧水会　
    誠和クリニック
  :latitude: 35.8146786
  :longitude: 139.9649979
'1232649':
  :name: |-
    医療法人社団皐月会　
    ながと内科・皮膚科クリニック
  :latitude: 35.8211738
  :longitude: 139.9369584
'1232657':
  :name: 医療法人社団文輝会 三村整形外科
  :latitude: 35.833197
  :longitude: 139.9320845
'1232665':
  :name: 天王台渡辺歯科
  :latitude: 35.8720665
  :longitude: 140.0418128
'1232673':
  :name: 医療法人社団誠高会 小金原診療所
  :latitude: 35.8192883
  :longitude: 139.9439913
'1232681':
  :name: |-
    医療法人社団誠高会　
    おおたかの森病院
  :latitude: 35.8679554
  :longitude: 139.9306018
'1232690':
  :name: 矢島整形外科医院
  :latitude: 35.8658727
  :longitude: 139.9388178
'1232703':
  :name: ソメヤデンタルクリニック
  :latitude: 35.9493651
  :longitude: 139.8641368
'1232711':
  :name: |-
    医療法人社団
    交心会 北原歯科医院
  :latitude: 35.7833024
  :longitude: 139.8982156
'1232720':
  :name: 柏新宿整形外科内科
  :latitude: 35.8428552
  :longitude: 139.955342
'1232738':
  :name: |-
    医療法人社団　湖仁会　
    ほしの脳神経クリニック
  :latitude: 35.8754317
  :longitude: 140.014796
'1232746':
  :name: |-
    医療法人社団三松会　
    さくらクリニック・松戸
  :latitude: 35.774009
  :longitude: 139.9169233
'1232754':
  :name: おかだクリニック
  :latitude: 35.891876
  :longitude: 140.0044162
'1232762':
  :name: |-
    医療法人社団葵会　
    柏たなか病院
  :latitude: 35.910944
  :longitude: 139.9557109
'1232771':
  :name: |-
    医療法人社団　緩痛会　
    梅郷痛みと内科のクリニック
  :latitude: 35.929145
  :longitude: 139.8905445
'1232797':
  :name: 藤田眼科
  :latitude: 35.8668621
  :longitude: 140.0781396
'1232801':
  :name: 六高台内科胃腸科クリニック
  :latitude: 35.7963202
  :longitude: 139.986738
'1232819':
  :name: |-
    医療法人森クリニック
    もり整形外科クリニック
  :latitude: 35.8529924
  :longitude: 140.1368458
'1232827':
  :name: けい内科クリニック
  :latitude: 35.8440131
  :longitude: 139.9545142
'1232835':
  :name: うめさと皮フ科クリニック
  :latitude: 35.9291529
  :longitude: 139.8905918
'1232843':
  :name: 医療法人社団球医会 矢切眼科
  :latitude: 35.7604885
  :longitude: 139.9001568
'1232851':
  :name: 医療法人社団譽会 ほんだ歯科医院
  :latitude: 35.8280365
  :longitude: 139.9322002
'1232860':
  :name: "医療法人社団診誠会 \nすずき内科クリニック"
  :latitude: 35.8538239
  :longitude: 139.9054073
'1232878':
  :name: やばしら眼科
  :latitude: 35.7911521
  :longitude: 139.9354654
'1232886':
  :name: |-
    医療法人社団　
    しゅうせい会 きのわきクリニック
  :latitude: 35.8185769
  :longitude: 139.9373724
'1232894':
  :name: 奥田整形外科医院
  :latitude: 35.7940039
  :longitude: 139.9929431
'1232908':
  :name: |-
    医療法人社団　
    律友会 友ペインクリニック
  :latitude: 35.8440131
  :longitude: 139.9545142
'1232916':
  :name: 菅谷歯科クリニック
  :latitude: 35.8678504
  :longitude: 139.9464115
'1232932':
  :name: みやもとファミリークリニック
  :latitude: 35.894434
  :longitude: 139.955075
'1232941':
  :name: "（医財）東京勤労者医療会　 東葛歯科"
  :latitude: 35.8677246
  :longitude: 139.9024849
'1232959':
  :name: |-
    医療法人社団淑幸会　
    尾崎台クリニック
  :latitude: 35.984263
  :longitude: 139.8354604
'1232967':
  :name: "医療法人社団　成樹会 \nとちの樹メディカルクリニック"
  :latitude: 35.7713927
  :longitude: 139.9142375
'1232975':
  :name: いそざき歯科
  :latitude: 35.7914597
  :longitude: 139.9211858
'1232983':
  :name: |-
    医療法人社団　千葉白報会　
    総合クリニックドクターランド松戸
  :latitude: 35.791946
  :longitude: 139.920627
'1233009':
  :name: |-
    医療法人社団　
    渡辺デンタルクリニック
  :latitude: 35.9422606
  :longitude: 139.8593263
'1233017':
  :name: ふじせ内科クリニック
  :latitude: 35.844052
  :longitude: 139.953309
'1233025':
  :name: |-
    医療法人社団　
    北野朋友会 松戸神経内科
  :latitude: 35.8163817
  :longitude: 139.9005533
'1233041':
  :name: |-
    医療法人社団　心の翼
    ライフガーデン中央クリニック
  :latitude: 35.872605
  :longitude: 139.926381
'1233050':
  :name: 南流山駅前クリニック
  :latitude: 35.8374927
  :longitude: 139.9023982
'1233068':
  :name: |-
    若葉ファミリー　
    常盤平駅前内科クリニック
  :latitude: 35.8028407
  :longitude: 139.9511806
'1233084':
  :name: |-
    医療法人社団康佑会　
    五香整形外科内科
  :latitude: 35.7975586
  :longitude: 139.9648306
'1233106':
  :name: ふじわら内科クリニック
  :latitude: 35.8390321
  :longitude: 139.9035589
'1233114':
  :name: 秋山ハートクリニック
  :latitude: 35.7665019
  :longitude: 139.9285755
'1233122':
  :name: おおたかの森耳鼻科モーニングクリニック
  :latitude: 35.8726674
  :longitude: 139.9264882
'1233131':
  :name: "医療法人社団 \n山浩会 八ヶ崎山下クリニック"
  :latitude: 35.808425
  :longitude: 139.9326592
'1233149':
  :name: 脇坂内科クリニック
  :latitude: 35.8135793
  :longitude: 139.918399
'1233165':
  :name: |-
    医療法人社団　
    心康会　三井クリニック
  :latitude: 35.7909932
  :longitude: 139.9383319
'1233173':
  :name: さわうちクリニック
  :latitude: 35.8756995
  :longitude: 139.955177
'1233181':
  :name: |-
    医療法人社団　
    康喜会 辻仲病院柏の葉
  :latitude: 35.894713
  :longitude: 139.951934
'1233190':
  :name: 医療法人社団 かわな眼科
  :latitude: 35.8028315
  :longitude: 139.9511892
'1233203':
  :name: |-
    医療法人社団39会
    メディカルクリニックマリア松戸
  :latitude: 35.7940008
  :longitude: 139.9807111
'1233211':
  :name: |-
    医療法人社団 松恵会
     けやきトータルクリニック
  :latitude: 35.8253473
  :longitude: 139.9123603
'1233220':
  :name: 石渡クリニック
  :latitude: 35.882591
  :longitude: 139.9238283
'1233238':
  :name: |-
    医療法人社団　鼎会　
    八柱三和クリニック
  :latitude: 35.7908177
  :longitude: 139.9382518
'1233246':
  :name: 新保クリニック
  :latitude: 35.8663342
  :longitude: 139.9625068
'1233254':
  :name: |-
    医療法人社団　
    英正会 ひまわり眼科
  :latitude: 35.8622909
  :longitude: 139.9706566
'1233262':
  :name: なおい歯科医院
  :latitude: 35.7978951
  :longitude: 139.9855158
'1233271':
  :name: |-
    医療法人社団　
    中川会 流山東部眼科
  :latitude: 35.8441154
  :longitude: 139.942032
'1233289':
  :name: 関宿いちおか眼科
  :latitude: 36.0263304
  :longitude: 139.8227353
'1233301':
  :name: |-
    医療法人社団　
    聖仁会 ふさ聖仁会クリニック
  :latitude: 35.8510009
  :longitude: 140.1308935
'1233319':
  :name: |-
    医療法人社団　
    康実会 しばた歯科医院
  :latitude: 35.9137447
  :longitude: 139.9069411
'1233327':
  :name: |-
    医療法人社団永和会
    新八柱整形外科内科
  :latitude: 35.7928579
  :longitude: 139.9437231
'1233335':
  :name: 医療法人社団昌擁会 　　　　　　　　　　　　　　　　　　　　　　　　　　　　　　　　柏フォレスト腎泌尿器クリニック
  :latitude: 35.8136929
  :longitude: 139.9792657
'1233343':
  :name: |-
    医療法人社団
    鐵櫻会 シャルムクリニック
  :latitude: 35.7663908
  :longitude: 139.9284671
'1233351':
  :name: 佐久間歯科医院
  :latitude: 35.861688
  :longitude: 139.9573107
'1233360':
  :name: さくら路クリニック
  :latitude: 35.8020323
  :longitude: 139.9486113
'1233378':
  :name: てらだデンタルクリニック
  :latitude: 35.8884093
  :longitude: 139.976383
'1233386':
  :name: |-
    医療法人財団　
    東京勤労者医療会　新松戸診療所
  :latitude: 35.8253223
  :longitude: 139.9191152
'1233394':
  :name: |-
    公益社団法人　
    生駒会　松戸診療所
  :latitude: 35.7866534
  :longitude: 139.9008572
'1233408':
  :name: |-
    医療法人　晟幸会
    馬橋駅デンタルオフィス
  :latitude: 35.8119235
  :longitude: 139.9168267
'1233416':
  :name: 柏東口よしだクリニック
  :latitude: 35.8580686
  :longitude: 139.9714321
'1233424':
  :name: |-
    医療法人社団聖心会　
    加賀谷正クリニック
  :latitude: 35.7698685
  :longitude: 139.9420269
'1233432':
  :name: 上本郷レディース整形外科
  :latitude: 35.7896591
  :longitude: 139.9164688
'1233467':
  :name: |-
    医療法人社団剛歯会　
    矢切ファミリー歯科
  :latitude: 35.7561765
  :longitude: 139.9000967
'1233475':
  :name: 手賀の杜クリニック
  :latitude: 35.8468079
  :longitude: 140.0218127
'1233483':
  :name: 高柳消化器内科外科
  :latitude: 35.8124544
  :longitude: 140.0079934
'1233491':
  :name: 医療法人社団　しみず眼科
  :latitude: 35.8623576
  :longitude: 139.9743052
'1233505':
  :name: |-
    医療法人社団柏友会　
    中村内科クリニック
  :latitude: 35.8870353
  :longitude: 139.9264626
'1233513':
  :name: 馬橋駅前診療所
  :latitude: 35.8112712
  :longitude: 139.9184324
'1233521':
  :name: |-
    医療法人社団東洋医心会　
    東葛整形外科内科　本院
  :latitude: 35.8006368
  :longitude: 139.9126677
'1233530':
  :name: 石橋クリニック
  :latitude: 35.8711462
  :longitude: 140.0095551
'1233548':
  :name: 八柱みどりの整形外科
  :latitude: 35.7910744
  :longitude: 139.9372458
'1233556':
  :name: |-
    医療法人社団洋英会　
    けやき歯科醫院
  :latitude: 35.874265
  :longitude: 140.004755
'1233564':
  :name: |-
    医療法人社団診誠会　
    ためがい整形外科クリニック
  :latitude: 35.8538239
  :longitude: 139.9054073
'1233572':
  :name: 医療法人社団 若水会 市場医院
  :latitude: 35.8073829
  :longitude: 139.9236571
'1233581':
  :name: |-
    医療法人社団　ランタナ会　
    久場川こども発達クリニック
  :latitude: 35.844074
  :longitude: 139.954539
'1233599':
  :name: 陽臨堂デンタルクリニック
  :latitude: 35.947621
  :longitude: 139.875751
'1233602':
  :name: |-
    医療法人社団誠馨会　
    新東京病院
  :latitude: 35.7770753
  :longitude: 139.9205617
'1233611':
  :name: |-
    医療法人社団健望会　
    あらき歯科クリニック
  :latitude: 35.8125766
  :longitude: 139.9155743
'1233629':
  :name: |-
    社会医療法人社団
    蛍水会 名戸ヶ谷あびこ病院
  :latitude: 35.8652114
  :longitude: 140.0273949
'1233637':
  :name: やまかわ内科・神経内科クリニック
  :latitude: 35.924632
  :longitude: 139.9011827
'1233645':
  :name: サンデンタルクリニック
  :latitude: 35.8630323
  :longitude: 139.9639128
'1233653':
  :name: |-
    医療法人社団東洋医心会　
    東葛整形外科内科　馬橋分院
  :latitude: 35.8112712
  :longitude: 139.9184324
'1233661':
  :name: ライフタウン歯科クリニック
  :latitude: 35.8879178
  :longitude: 139.9788828
'1233670':
  :name: スマイル歯科医院
  :latitude: 35.8363571
  :longitude: 139.9116711
'1233688':
  :name: |-
    医療法人社団のぞみ会
    のぞみ整形外科・内科クリニック
  :latitude: 35.838018
  :longitude: 139.9062466
'1233700':
  :name: |-
    医療法人社団　聖秀会　
    聖光ヶ丘病院
  :latitude: 35.8298821
  :longitude: 139.9582922
'1233718':
  :name: 北柏すごう整形外科
  :latitude: 35.87489780000001
  :longitude: 139.988488
'1233726':
  :name: |-
    医療法人社団マハロ会
    柏などがや歯科クリニック
  :latitude: 35.8458299
  :longitude: 139.9849414
'1233734':
  :name: |-
    医療法人社団マハロ会
    英デンタルクリニック
  :latitude: 35.843558
  :longitude: 139.9758341
'1233742':
  :name: あらい内科・外科
  :latitude: 35.8396594
  :longitude: 139.8951947
'1233751':
  :name: |-
    医療法人社団柏誠会
    川間春日町整形外科小児科クリニック
  :latitude: 35.9767139
  :longitude: 139.8423434
'1233769':
  :name: 医療法人社団　小松歯科医院
  :latitude: 35.7557369
  :longitude: 139.9342475
'1233777':
  :name: 左近允眼科
  :latitude: 35.7835514
  :longitude: 139.9024546
'1233785':
  :name: |-
    一般社団法人　巨樹の会　
    松戸リハビリテーション病院
  :latitude: 35.7804583
  :longitude: 139.9213837
'1233793':
  :name: 角脇歯科医院
  :latitude: 35.9329
  :longitude: 139.885706
'1233807':
  :name: |-
    医療法人財団はるたか会
    あおぞら診療所新松戸
  :latitude: 35.8266119
  :longitude: 139.9127657
'1233815':
  :name: |-
    医療法人社団　尚歯会　
    プラーレ歯科
  :latitude: 35.7835514
  :longitude: 139.9024546
'1233823':
  :name: |-
    医療法人社団　雄元会　
    東洋眼科･胃腸内科･外科
  :latitude: 35.8370063
  :longitude: 140.0011093
'1233831':
  :name: |-
    医療法人社団　鼎会　
    三和病院
  :latitude: 35.787053
  :longitude: 139.9454426
'1233840':
  :name: 医療法人社団　我孫子おがわ眼科
  :latitude: 35.8733097
  :longitude: 140.0107993
'1233858':
  :name: |-
    医療法人社団しらゆり会　
    しらゆり歯科医院
  :latitude: 35.8113528
  :longitude: 139.9154379
'1233866':
  :name: 桜耳鼻咽喉科めまいクリニック
  :latitude: 35.8700576
  :longitude: 139.9225747
'1233874':
  :name: なかたに歯科
  :latitude: 35.8660844
  :longitude: 139.9387925
'1233882':
  :name: |-
    医療法人社団　しらゆり会　
    しらゆり歯科医院グリーン
  :latitude: 35.8009612
  :longitude: 139.9129258
'1233891':
  :name: 上野歯科クリニック
  :latitude: 35.9265704
  :longitude: 139.8892031
'1233904':
  :name: |-
    社会福祉法人創仁会　
    東葛医療福祉センター光陽園
  :latitude: 35.8194585
  :longitude: 139.9607814
'1233912':
  :name: ゆき歯科クリニック
  :latitude: 35.8493024
  :longitude: 139.9177841
'1233921':
  :name: |-
    医療法人社団あかつき
    ホームクリニック柏
  :latitude: 35.858825
  :longitude: 139.9807556
'1233939':
  :name: 北柏ライフタウンクリニック
  :latitude: 35.8916697
  :longitude: 139.9706027
'1233947':
  :name: ラシバヤクリニック
  :latitude: 35.7930439
  :longitude: 139.9419454
'1233955':
  :name: 医療法人社団　碧水会 南増尾クリニック
  :latitude: 35.8182588
  :longitude: 139.9717635
'1233963':
  :name: |-
    医療法人財団　東京勤労者医療会　
    東葛病院付属流山セントラルパーク駅前診療所
  :latitude: 35.8534823
  :longitude: 139.9162396
